{
    "@context": "https://doi.org/10.5063/schema/codemeta-2.0",
    "@type": "SoftwareSourceCode",
    "description": "Psi4: Open-Source Quantum Chemistry - an electronic structure package in C++ driven by Python",
    "name": "Psi4",
    "codeRepository": "https://github.com/psi4/psi4",
    "issueTracker": "https://github.com/psi4/psi4/issues",
    "license": "https://opensource.org/licenses/lgpl-3.0.html",
    "version": "1.3",
    "author": [
        {
            "@type": "Person",
            "givenName": "Robert",
            "additionalName": "M.",
            "familyName": "Parrish",
            "affiliation": "Center for Computational Molecular Science and Technology, Georgia Institute of Technology",
            "latitude": 33.780,
            "longitude": -84.3965,
            "@id": "https://github.com/robparrish"
        },
        {
            "@type": "Person",
            "givenName": "Lori",
            "additionalName": "A.",
            "familyName": "Burns",
            "affiliation": "Center for Computational Molecular Science and Technology, Georgia Institute of Technology",
            "latitude": 33.780,
            "longitude": -84.3965,
            "@id": "https://orcid.org/0000-0003-2852-5864",
            "@id": "https://github.com/loriab"
        },
        {
            "@type": "Person",
            "givenName": "Daniel",
            "additionalName": "G. A.",
            "familyName": "Smith",
            "affiliation": "The Molecular Sciences Software Institute",
            "latitude": 37.20015,
            "longitude": -80.4106,
            "@id": "https://orcid.org/0000-0001-8626-0900",
            "@id": "https://github.com/dgasmith"
        },
        {
            "@type": "Person",
            "givenName": "Andrew",
            "additionalName": "C.",
            "familyName": "Simmonett",
            "affiliation": "National Institutes of Health -- National Heart, Lung and Blood Institute",
            "latitude": 38.999264,
            "longitude": -77.101852,
            "@id": "https://orcid.org/0000-0002-5921-9272",
            "@id": "https://github.com/andysim"
        },
        {
            "@type": "Person",
            "givenName": "A.",
            "additionalName": "Eugene",
            "familyName": "DePrince",
            "affiliation": "Department of Chemistry and Biochemistry, Florida State University",
            "latitude": 30.44392,
            "longitude": -84.3013,
            "@id": "https://orcid.org/0000-0003-1061-2521",
            "@id": "https://github.com/edeprince3"
        },
        {
            "@type": "Person",
            "givenName": "Edward",
            "additionalName": "G.",
            "familyName": "Hohenstein",
            "affiliation": "Department of Chemistry and Biochemistry, The City College of New York",
            "latitude": 40.820,
            "longitude": -73.950,
            "@id": "https://orcid.org/0000-0002-2119-2959",
            "@id": "https://github.com/ehohenstein2"
        },
        {
            "@type": "Person",
            "givenName": "U\u0223ur",
            "familyName": "Bozkaya",
            "affiliation": "Department of Chemistry, Hacettepe University, Turkey",
            "latitude": 39.867,
            "longitude": 32.734,
            "@id": "https://orcid.org/0000-0002-5203-2210",
            "@id": "https://github.com/bozkaya"
        },
        {
            "@type": "Person",
            "givenName": "Alexander",
            "additionalName": "Yu.",
            "familyName": "Sokolov",
            "affiliation": "Department of Chemistry and Biochemistry, The Ohio State University",
            "latitude": 40.0023,
            "longitude": -83.0113,
            "@id": "https://orcid.org/0000-0003-2637-4134",
            "@id": "https://github.com/ssh2"
        },
        {
            "@type": "Person",
            "givenName": "Roberto",
            "familyName": "Di Remigio",
            "affiliation": "Hylleraas Centre for Quantum Molecular Sciences, UiT - The Arctic University of Norway",
            "latitude": 69.682,
            "longitude": 18.977,
            "@id": "https://orcid.org/0000-0002-5452-9239",
            "@id": "https://github.com/robertodr"
        },
        {
            "@type": "Person",
            "givenName": "Ryan",
            "additionalName": "M.",
            "familyName": "Richard",
            "affiliation": "Center for Computational Molecular Science and Technology, Georgia Institute of Technology",
            "latitude": 33.780,
            "longitude": -84.3965,
            "@id": "https://github.com/ryanmrichard"
        },
        {
            "@type": "Person",
            "givenName": "J\u0169r\u0180me",
            "additionalName": "F.",
            "familyName": "Gonthier",
            "affiliation": "Center for Computational Molecular Science and Technology, Georgia Institute of Technology",
            "latitude": 33.780,
            "longitude": -84.3965,
            "@id": "https://orcid.org/0000-0002-2933-4085",
            "@id": "https://github.com/jgonthier"
        },
        {
            "@type": "Person",
            "givenName": "Andrew",
            "additionalName": "M.",
            "familyName": "James",
            "affiliation": "Department of Chemistry, Virginia Tech",
            "latitude": 37.227,
            "longitude": -80.425,
            "@id": "https://orcid.org/0000-0001-5821-6064",
            "@id": "https://github.com/amjames"
        },
        {
            "@type": "Person",
            "givenName": "Harley",
            "additionalName": "R.",
            "familyName": "McAlexander",
            "affiliation": "Department of Chemistry, Virginia Tech",
            "latitude": 37.227,
            "longitude": -80.425,
            "@id": "https://github.com/harls"
        },
        {
            "@type": "Person",
            "givenName": "Ashutosh",
            "familyName": "Kumar",
            "affiliation": "Department of Chemistry, Virginia Tech",
            "latitude": 37.227,
            "longitude": -80.425,
            "@id": "https://orcid.org/0000-0001-7589-6030",
            "@id": "https://github.com/ashutoshvt"
        },
        {
            "@type": "Person",
            "givenName": "Masaaki",
            "familyName": "Saitow",
            "affiliation": "Department of Chemistry and Research Center for Smart Molecules, Rikkyo University, Japan",
            "latitude": 35.7305,
            "longitude": 139.7018,
            "@id": "https://github.com/msaitow"
        },
        {
            "@type": "Person",
            "givenName": "Xiao",
            "familyName": "Wang",
            "affiliation": "Department of Chemistry, Virginia Tech",
            "latitude": 37.227,
            "longitude": -80.425,
            "@id": "https://orcid.org/0000-0003-1402-7522",
            "@id": "https://github.com/xwang862"
        },
        {
            "@type": "Person",
            "givenName": "Benjamin",
            "additionalName": "P.",
            "familyName": "Pritchard",
            "affiliation": "The Molecular Sciences Software Institute",
            "latitude": 37.20015,
            "longitude": -80.4106,
            "@id": "https://github.com/bennybp"
        },
        {
            "@type": "Person",
            "givenName": "Prakash",
            "familyName": "Verma",
            "affiliation": "Department of Chemistry, Emory University",
            "latitude": 33.7915,
            "longitude": -84.3264,
            "@id": "https://orcid.org/0000-0003-3048-9380",
            "@id": "https://github.com/PrakashVermaQTP"
        },
        {
            "@type": "Person",
            "givenName": "Henry",
            "additionalName": "F.",
            "familyName": "Schaefer",
            "affiliation": "Center for Computational Quantum Chemistry, University of Georgia",
            "latitude": 33.94797,
            "longitude": -83.37482,
            "@id": "https://orcid.org/0000-0003-0252-2083"
        },
        {
            "@type": "Person",
            "givenName": "Konrad",
            "familyName": "Patkowski",
            "affiliation": "Department of Chemistry and Biochemistry, Auburn University",
            "latitude": 32.5997,
            "longitude": -85.4852,
            "@id": "https://orcid.org/0000-0002-4468-207X",
            "@id": "https://github.com/konpat"
        },
        {
            "@type": "Person",
            "givenName": "Rollin",
            "additionalName": "A.",
            "familyName": "King",
            "affiliation": "Department of Chemistry, Bethel University",
            "latitude": 45.057793,
            "longitude": -93.161380,
            "@id": "https://orcid.org/0000-0002-1173-4187",
            "@id": "https://github.com/psi-rking"
        },
        {
            "@type": "Person",
            "givenName": "Edward",
            "additionalName": "F.",
            "familyName": "Valeev",
            "affiliation": "Department of Chemistry, Virginia Tech",
            "latitude": 37.227,
            "longitude": -80.425,
            "@id": "https://orcid.org/0000-0001-9923-6256",
            "@id": "https://github.com/evaleev"
        },
        {
            "@type": "Person",
            "givenName": "Francesco",
            "additionalName": "A.",
            "familyName": "Evangelista",
            "affiliation": "Department of Chemistry, Emory University",
            "latitude": 33.7915,
            "longitude": -84.3264,
            "@id": "https://orcid.org/0000-0002-7917-6652",
            "@id": "https://github.com/fevangelista"
        },
        {
            "@type": "Person",
            "givenName": "Justin",
            "additionalName": "M.",
            "familyName": "Turney",
            "affiliation": "Center for Computational Quantum Chemistry, University of Georgia",
            "latitude": 33.94797,
            "longitude": -83.37482,
            "@id": "https://orcid.org/0000-0003-3659-0711",
            "@id": "https://github.com/jturney"
        },
        {
            "@type": "Person",
            "givenName": "T.",
            "additionalName": "Daniel",
            "familyName": "Crawford",
            "affiliation": "Department of Chemistry, Virginia Tech",
            "latitude": 37.227,
            "longitude": -80.425,
            "@id": "https://orcid.org/0000-0002-7961-7016",
            "@id": "https://github.com/lothian"
        },
        {
            "@type": "Person",
            "givenName": "C.",
            "additionalName": "David",
            "familyName": "Sherrill",
            "affiliation": "Center for Computational Molecular Science and Technology, Georgia Institute of Technology",
            "latitude": 33.780,
            "longitude": -84.3965,
            "@id": "https://orcid.org/0000-0002-5570-7666",
            "@id": "https://github.com/CDSherrill"
        },
        {
            "@type": "Person",
            "givenName": "Peter",
            "familyName": "Kraus",
            "affiliation": "Fritz Haber Institute of the Max Planck Society, Berlin, Germany",
            "latitude": 52.4485,
            "longitude": 13.2827,
            "@id": "https://orcid.org/0000-0002-4359-5003",
            "@id": "https://github.com/PeterKraus"
        },
        {
            "@type": "Person",
            "givenName": "Holger",
            "familyName": "Kruse",
            "affiliation": "Institute of Biophysics of the CAS, v.v.i., Czech Republic",
            "latitude": 49.2206,
            "longitude": 16.580,
            "@id": "https://orcid.org/0000-0002-0560-1513",
            "@id": "https://github.com/hokru"
        },
        {
            "@type": "Person",
            "givenName": "Marvin",
            "additionalName": "H.",
            "familyName": "Lechner",
            "affiliation": "Department of Chemistry, Technical University of Munich",
            "latitude": 48.1497,
            "longitude": 11.5679,
            "@id": "https://orcid.org/0000-0002-1676-2718",
            "@id": "https://github.com/mhlechner"
        },
        {
            "@type": "Person",
            "givenName": "Matthew",
            "additionalName": "C.",
            "familyName": "Schieber",
            "affiliation": "Center for Computational Molecular Science and Technology, Georgia Institute of Technology",
            "latitude": 33.780,
            "longitude": -84.3965,
            "@id": "https://github.com/schiebermc"
        },
        {
            "@type": "Person",
            "givenName": "Robert",
            "additionalName": "A.",
            "familyName": "Shaw",
            "affiliation": "University of Sheffield",
            "latitude": 53.381,
            "longitude": -1.488,
            "@id": "https://orcid.org/0000-0002-9977-0835",
            "@id": "https://github.com/robashaw"
        },
        {
            "@type": "Person",
            "givenName": "Edward",
            "additionalName": "T.",
            "familyName": "Seidl",
            "affiliation": "Center for Computational Quantum Chemistry, University of Georgia",
            "latitude": 33.94797,
            "longitude": -83.37482
        },
        {
            "@type": "Person",
            "givenName": "Curtis",
            "additionalName": "L.",
            "familyName": "Janssen",
            "affiliation": "Center for Computational Quantum Chemistry, University of Georgia",
            "latitude": 33.94797,
            "longitude": -83.37482
        },
        {
            "@type": "Person",
            "givenName": "Matthew",
            "additionalName": "L.",
            "familyName": "Leininger",
            "affiliation": "Center for Computational Molecular Science and Technology, Georgia Institute of Technology",
            "latitude": 33.780,
            "longitude": -84.3965
        },
        {
            "@type": "Person",
            "givenName": "Asem",
            "familyName": "Alenaizan",
            "affiliation": "Center for Computational Molecular Science and Technology, Georgia Institute of Technology",
            "latitude": 33.780,
            "longitude": -84.3965,
            "@id": "https://orcid.org/0000-0002-0871-664X",
            "@id": "https://github.com/alenaizan"
        },
        {
            "@type": "Person",
            "givenName": "Raimondas",
            "familyName": "Galvelis",
            "affiliation": "Acellera",
            "latitude": 41.3971,
            "longitude": 2.2013,
            "@id": "https://orcid.org/0000-0001-8431-1612",
            "@id": "https://github.com/raimis"
        },
        {
            "@type": "Person",
            "givenName": "Zachary",
            "additionalName": "L.",
            "familyName": "Glick",
            "affiliation": "Center for Computational Molecular Science and Technology, Georgia Institute of Technology",
            "latitude": 33.780,
            "longitude": -84.3965,
            "@id": "https://github.com/zachglick"
        },
        {
            "@type": "Person",
            "givenName": "Susi",
            "familyName": "Lehtola",
            "affiliation": "Department of Chemistry, University of Helsinki",
            "latitude": 60.205097,
            "longitude": 24.964145,
            "@id": "https://orcid.org/0000-0001-6296-8103",
            "@id": "https://github.com/susilehtola"
        },
        {
            "@type": "Person",
            "givenName": "Jonathon",
            "additionalName": "P.",
            "familyName": "Misiewicz",
            "affiliation": "Center for Computational Quantum Chemistry, University of Georgia",
            "latitude": 33.94797,
            "longitude": -83.37482,
            "@id": "https://orcid.org/0000-0002-6425-9551",
            "@id": "https://github.com/JonathonMisiewicz"
        }
    ],
    "developmentStatus": "active",
    "downloadUrl": "http://psicode.org/downloads.html",
    "keywords": [
        "quantum-chemistry",
        "computational-chemistry",
        "chemistry",
        "physics"
    ],
    "maintainer": "https://orcid.org/0000-0002-5570-7666",
    "programmingLanguage": [
        "C++",
        "Python",
        "C",
        "Fortran"
    ]
}
